City_ID,City,Lat,Lng,Max Temp,Humidity,Cloudiness,Wind Speed,Country,Date
0,new norfolk,-42.7826,147.0587,13.17,71,100,1.34,AU,1684797286
1,klyuchi,52.2667,79.1667,13.58,52,76,2.5,RU,1684797286
2,puerto natales,-51.7236,-72.4875,-1.26,87,100,1.55,CL,1684797286
3,waitangi,-43.9535,-176.5597,14.9,90,6,1.79,NZ,1684797286
4,cornelio procopio,-23.1811,-50.6467,15.57,74,50,2.03,BR,1684797106
5,lexington,37.9887,-84.4777,25.0,36,0,4.63,US,1684797197
6,san pedro de ycuamandiyu,-24.0917,-57.0764,22.2,69,32,2.67,PY,1684797287
7,luderitz,-26.6481,15.1594,12.7,82,24,2.61,NA,1684797287
8,gadzhiyevo,69.2551,33.3362,11.16,75,75,3.07,RU,1684797287
9,mar del plata,-38.0023,-57.5575,16.72,98,100,1.54,AR,1684796901
10,keflavik,64.0049,-22.5624,7.95,100,100,7.72,IS,1684797287
11,dhidhdhoo,6.8833,73.1,28.46,75,93,1.08,MV,1684797287
12,benghazi,32.1167,20.0667,18.71,82,1,2.19,LY,1684797287
13,lebu,-37.6167,-73.65,12.87,84,100,8.26,CL,1684797287
14,port-aux-francais,-49.35,70.2167,6.8,86,79,10.5,TF,1684797287
15,mbala,-8.8402,31.3659,15.44,73,83,2.72,ZM,1684797287
16,ribeira grande,38.5167,-28.7,17.65,78,8,6.26,PT,1684797287
17,bethel,41.3712,-73.414,20.08,61,88,0.45,US,1684797227
18,bilibino,68.0546,166.4372,3.33,91,100,0.88,RU,1684797288
19,atafu village,-8.5421,-172.5159,28.35,76,67,4.05,TK,1684797288
20,ilulissat,69.2167,-51.1,0.01,74,4,7.2,GL,1684797288
21,hawaiian paradise park,19.5933,-154.9731,25.57,87,100,3.6,US,1684797288
22,rio grande,-32.035,-52.0986,18.86,80,88,3.37,BR,1684797288
23,adamstown,-25.066,-130.1015,24.44,85,100,10.1,PN,1684797288
24,magadi,12.9667,77.2333,22.58,79,77,1.42,IN,1684797288
25,thompson,55.7435,-97.8558,14.09,51,100,10.29,CA,1684797288
26,monrovia,6.3005,-10.7969,25.87,81,82,2.39,LR,1684797147
27,san antonio de pale,-1.4014,5.6325,26.19,76,80,3.89,GQ,1684797288
28,acajutla,13.5928,-89.8275,29.97,67,94,3.33,SV,1684797288
29,iqaluit,63.7506,-68.5145,-7.15,62,100,3.09,CA,1684797288
30,kloulklubed,7.0419,134.2556,27.28,76,96,5.48,PW,1684797289
31,college,64.8569,-147.8028,14.21,64,75,2.06,US,1684797289
32,mount gambier,-37.8333,140.7667,12.41,69,100,2.86,AU,1684797289
33,kodiak,57.79,-152.4072,6.73,93,100,10.29,US,1684797289
34,georgetown,5.4112,100.3354,26.96,83,20,0.0,MY,1684797199
35,brokopondo,4.75,-55.1667,25.39,91,100,3.96,SR,1684797289
36,margaret river,-33.95,115.0667,16.96,83,99,5.07,AU,1684797289
37,qusmuryn,52.4503,64.6311,14.76,58,34,3.86,KZ,1684797289
38,jamestown,42.097,-79.2353,20.29,54,0,3.6,US,1684797126
39,richards bay,-28.783,32.0377,16.18,79,59,1.78,ZA,1684797289
40,avarua,-21.2078,-159.775,26.03,61,20,2.57,CK,1684797289
41,ezine,39.7856,26.3408,17.71,85,83,3.57,TR,1684797289
42,posoltega,12.5448,-86.9799,30.99,63,100,3.89,NI,1684797290
43,rawlins,41.7911,-107.2387,22.42,20,0,2.06,US,1684797290
44,kerouane,9.2667,-9.0167,20.57,97,97,0.67,GN,1684797290
45,aripuana,-9.1667,-60.6333,26.5,73,77,1.14,BR,1684797290
46,edinburgh of the seven seas,-37.0676,-12.3116,12.79,63,67,11.69,SH,1684797290
47,punta arenas,-53.15,-70.9167,4.06,70,0,5.14,CL,1684797290
48,mount pearl,47.5166,-52.7813,3.41,89,100,4.12,CA,1684797290
49,nogliki,51.8333,143.1667,3.78,83,99,4.86,RU,1684797290
50,albany,42.6001,-73.9662,21.05,50,40,1.37,US,1684797051
51,port elizabeth,-33.918,25.5701,11.16,82,0,1.54,ZA,1684797290
52,port-cartier,50.0334,-66.8654,6.12,61,4,4.93,CA,1684797291
53,port mathurin,-19.6833,63.4167,24.72,72,2,3.07,MU,1684797291
54,alice springs,-23.7,133.8833,9.75,76,0,0.0,AU,1684797291
55,udachny,66.4167,112.4,1.92,64,94,3.64,RU,1684797291
56,sao jose da coroa grande,-8.8978,-35.1478,25.22,89,33,4.75,BR,1684797160
57,nova sintra,14.8667,-24.7167,20.45,80,100,5.15,CV,1684797291
58,hamilton,39.1834,-84.5333,26.35,42,20,4.12,US,1684797247
59,kharkhorin,47.1975,102.8238,10.82,43,99,2.08,MN,1684797291
60,papatowai,-46.5619,169.4708,10.65,74,100,5.02,NZ,1684797291
61,sitka,57.0531,-135.33,11.94,58,0,6.69,US,1684797291
62,salekhard,66.53,66.6019,9.75,79,8,3.35,RU,1684797291
63,whitehorse,60.7161,-135.0538,15.01,30,75,3.6,CA,1684797292
64,kalmunai,7.4167,81.8167,25.84,85,9,1.42,LK,1684797292
65,grytviken,-54.2811,-36.5092,4.72,97,100,3.29,GS,1684797292
66,harare,-17.8294,31.0539,16.01,59,91,2.28,ZW,1684797292
67,santa cruz,-17.8,-63.1667,25.03,88,40,6.17,BO,1684797292
68,logansport,40.7545,-86.3567,26.61,25,0,0.0,US,1684797248
69,blackmans bay,-43.0167,147.3167,13.07,79,100,3.23,AU,1684797292
70,yellowknife,62.456,-114.3525,17.29,27,20,3.09,CA,1684797241
71,colonia,50.9333,6.95,16.36,83,0,3.6,DE,1684796561
72,dourbali,11.8091,15.8632,32.49,37,30,2.5,TD,1684797292
73,ushuaia,-54.8,-68.3,5.81,52,20,1.54,AR,1684797054
74,wailua homesteads,22.0669,-159.378,27.44,71,40,6.69,US,1684797292
75,laojunmiao,39.8333,97.7333,13.21,30,21,3.0,CN,1684797293
76,ust-nera,64.5667,143.2,4.21,74,98,1.39,RU,1684797293
77,cidreira,-30.1811,-50.2056,19.06,88,67,2.64,BR,1684797293
78,blenheim,-41.516,173.9528,13.07,73,0,1.39,NZ,1684797293
79,coquimbo,-29.9533,-71.3436,15.85,94,75,1.03,CL,1684797293
80,kisangani,0.5167,25.2,21.71,98,77,0.87,CD,1684797293
81,huelma,37.6713,-3.39,9.06,91,100,1.25,ES,1684797293
82,kapa'a,22.0752,-159.319,28.18,71,40,6.69,US,1684797293
83,zhezqazghan,47.7833,67.7667,12.32,47,0,5.0,KZ,1684797293
84,pasighat,28.0667,95.3333,21.04,77,4,1.51,IN,1684797293
85,tiksi,71.6872,128.8694,-5.64,84,30,2.4,RU,1684797293
86,tournan-en-brie,48.7415,2.772,15.39,88,40,2.57,FR,1684797294
87,gurupa,-1.405,-51.64,25.02,92,29,1.65,BR,1684797294
88,kharan,28.5833,65.4167,30.12,24,95,1.41,PK,1684797294
89,pisco,-13.7,-76.2167,22.03,73,0,5.14,PE,1684797304
90,jilin,43.0,126.0,14.03,60,1,2.09,CN,1684797305
91,ashland,40.8167,-82.2665,23.3,39,5,3.29,US,1684797180
92,duba,27.3513,35.6901,27.64,49,99,3.67,SA,1684797305
93,olonkinbyen,70.9221,-8.7187,1.02,91,46,4.01,SJ,1684797306
94,kirakira,-10.4544,161.9205,28.88,74,100,2.65,SB,1684797306
95,kargasok,59.0556,80.8572,8.46,57,50,2.35,RU,1684797307
96,bredasdorp,-34.5322,20.0403,12.99,59,100,1.25,ZA,1684797307
97,baiti,13.745,-14.7482,33.4,17,53,5.0,SN,1684797307
98,west island,-12.1568,96.8225,25.99,94,40,1.54,CC,1684797307
99,broome,42.2506,-75.833,22.21,53,0,3.6,US,1684797307
100,thunder bay,48.4001,-89.3168,12.99,50,75,5.14,CA,1684797308
101,altay,47.8667,88.1167,8.19,64,9,2.72,CN,1684797308
102,aquin,18.2833,-73.4,27.02,75,20,1.06,HT,1684797308
103,kamina,-8.7386,24.9906,19.71,63,56,0.32,CD,1684797309
104,mangrol,21.1167,70.1167,27.83,78,40,4.9,IN,1684797309
105,invercargill,-46.4,168.35,10.43,82,99,6.3,NZ,1684797309
106,brookings,44.3114,-96.7984,27.19,38,20,6.17,US,1684797309
107,petropavlovsk-kamchatsky,53.0452,158.6483,1.33,100,100,4.0,RU,1684797310
108,manicore,-5.8092,-61.3003,27.06,78,92,0.95,BR,1684797310
109,hermanus,-34.4187,19.2345,13.78,61,99,2.47,ZA,1684797311
110,yudong,29.385,106.5194,18.61,83,100,1.05,CN,1684797311
111,al ghayzah,16.2079,52.176,28.56,70,17,4.12,YE,1684797312
112,lysekil,58.2743,11.4358,12.84,88,82,3.27,SE,1684797312
113,namibe,-15.1961,12.1522,21.55,74,1,3.48,AO,1684797312
114,praia da vitoria,38.7333,-27.0667,17.14,82,20,5.74,PT,1684797312
115,mangai,-4.05,19.5333,20.39,97,99,0.5,CD,1684797313
116,luganville,-15.5333,167.1667,27.45,84,99,4.39,VU,1684797313
117,ola,59.5833,151.2833,6.75,74,100,4.26,RU,1684797313
118,ozery,54.86,38.5506,12.08,87,99,3.56,RU,1684797313
119,fort bragg,35.139,-79.006,27.08,42,0,4.63,US,1684797313
120,greenland,43.0362,-70.8328,16.03,71,40,4.63,US,1684797314
121,chipata,-13.6333,32.65,17.95,70,64,1.87,ZM,1684797314
122,ladario,-19.0047,-57.6017,26.78,55,28,0.61,BR,1684797235
123,talnakh,69.4865,88.3972,0.67,99,100,6.42,RU,1684797315
124,baghlan,35.75,69.0,15.29,55,100,2.78,AF,1684797315
125,isafjordur,66.0755,-23.124,5.42,66,86,2.9,IS,1684797316
126,flying fish cove,-10.4217,105.6791,25.82,83,75,4.12,CX,1684797316
127,vorgashor,67.5833,63.95,3.76,96,36,1.89,RU,1684797317
128,arraial do cabo,-22.9661,-42.0278,19.98,94,20,2.57,BR,1684797318
129,utrik,11.2278,169.8474,27.9,80,94,7.31,MH,1684797318
130,ust'-ilimsk,58.0006,102.6619,8.28,67,90,1.83,RU,1684797278
131,sao joao da barra,-21.6403,-41.0511,20.05,83,92,3.24,BR,1684797147
132,susuman,62.7833,148.1667,4.54,65,98,1.25,RU,1684797318
133,mogadishu,2.0371,45.3438,26.83,88,11,5.98,SO,1684797319
134,puerto ayora,-0.7393,-90.3518,25.31,94,37,1.79,EC,1684797319
135,golhisar,37.1459,29.5088,11.31,90,61,1.86,TR,1684797319
136,copala,16.65,-98.9833,30.62,62,23,3.83,MX,1684797320
137,enewetak,11.3474,162.3373,28.22,74,99,6.87,MH,1684797320
138,hasaki,35.7333,140.8333,14.56,87,100,7.29,JP,1684797320
139,fort st. john,56.2499,-120.8529,8.94,93,100,6.69,CA,1684797321
140,antsiranana,-12.2787,49.2917,22.25,91,45,2.21,MG,1684797321
141,stanley,54.868,-1.6985,8.21,91,0,1.03,GB,1684797321
142,weno,7.4515,151.8468,30.97,84,100,3.6,FM,1684797321
143,kone,-21.0595,164.8658,23.54,51,100,4.34,NC,1684797322
144,codrington,-38.2667,141.9667,12.62,70,100,4.59,AU,1684797322
145,shawinigan,46.5668,-72.7491,13.58,33,1,3.6,CA,1684797322
146,cannonvale,-20.2833,148.7,20.66,69,88,7.41,AU,1684797322
147,lerwick,60.1545,-1.1494,9.0,82,22,5.64,GB,1684797323
148,tolanaro,-25.0319,46.9987,18.8,81,14,3.61,MG,1684797323
149,loreto,22.2667,-101.9667,24.8,34,67,4.75,MX,1684797323
150,brusyliv,50.2845,29.5263,12.21,73,72,2.78,UA,1684797323
151,port lincoln,-34.7333,135.8667,13.84,73,100,4.79,AU,1684797323
152,ha'il,27.5219,41.6907,26.01,21,0,3.09,SA,1684797323
153,elverum,60.8819,11.5623,11.12,96,82,1.58,NO,1684797324
154,bogale,16.2833,95.4,27.32,80,76,4.49,MM,1684797324
155,hounde,11.5,-3.5167,32.09,39,55,2.29,BF,1684797324
156,saint-pierre,-21.3393,55.4781,22.82,73,20,2.57,RE,1684797325
157,island harbour,50.724,-1.2758,13.9,63,7,2.24,GB,1684797325
158,nizhnesortymskiy,62.4397,71.7603,10.94,50,18,3.7,RU,1684797326
159,konarka,19.9,86.1167,29.22,87,51,8.52,IN,1684797326
160,okondja,-0.6549,13.6753,22.69,95,96,0.31,GA,1684797326
161,qaqortoq,60.7167,-46.0333,0.22,86,100,14.55,GL,1684797326
162,selkirk,50.1436,-96.8845,27.04,34,54,0.45,CA,1684797327
163,nieuw amsterdam,5.8833,-55.0833,26.68,89,40,1.03,SR,1684797327
164,watford city,47.8022,-103.2832,29.53,32,0,4.63,US,1684797327
165,tsengel,49.4783,100.8894,6.92,92,100,3.29,MN,1684797327
166,chokwe,-24.5333,32.9833,16.3,90,34,2.36,MZ,1684797328
167,qingyuan,23.7,113.0333,21.99,88,97,2.77,CN,1684797328
168,singerei,47.6667,28.1667,14.05,80,90,1.84,MD,1684797328
169,alofi,-19.0595,-169.9187,26.94,61,75,4.12,NU,1684797329
170,nemuro,43.3236,145.575,5.41,86,99,3.12,JP,1684797329
171,la'ie,21.6477,-157.9253,28.98,74,85,2.68,US,1684797329
172,tazovsky,67.4667,78.7,1.86,96,100,7.2,RU,1684797329
173,pingliang,35.5392,106.6861,10.22,48,100,2.09,CN,1684797330
174,galliano,29.4422,-90.2992,30.0,58,0,3.09,US,1684797330
175,longyearbyen,78.2186,15.6401,3.91,81,75,4.63,SJ,1684797330
176,lompoc,34.6391,-120.4579,27.05,79,100,5.81,US,1684797116
177,korla,41.7597,86.1469,17.05,33,100,7.88,CN,1684797331
178,aykhal,66.0,111.5,-1.31,93,98,2.87,RU,1684797331
179,kudahuvadhoo,2.6708,72.8944,28.29,73,3,2.58,MV,1684797332
180,muisne,0.6,-80.0333,26.36,80,51,3.31,EC,1684797332
181,filipstad,59.7124,14.1683,13.34,87,90,0.97,SE,1684797332
182,sao vicente,-23.9631,-46.3919,24.59,26,100,0.78,BR,1684797266
183,el calafate,-50.3408,-72.2768,-0.72,75,80,1.16,AR,1684797333
184,mandal,25.45,74.5667,29.92,33,26,5.37,IN,1684797333
185,mansa,29.9833,75.3833,31.35,29,87,2.82,IN,1684797333
186,khandyga,62.6667,135.6,4.56,54,80,1.82,RU,1684797334
187,zeya,53.75,127.2667,15.11,53,83,1.65,RU,1684797334
188,juneau,58.3019,-134.4197,13.0,44,75,2.57,US,1684797156
189,rio preto da eva,-2.6994,-59.6997,24.65,95,58,0.59,BR,1684797335
190,al qubbah,32.7616,22.2424,13.54,83,1,5.7,LY,1684797335
191,chui,-33.6971,-53.4616,19.9,75,90,2.66,UY,1684797335
192,mossel bay,-34.1831,22.146,11.96,56,100,2.86,ZA,1684797335
193,fortuna,40.5982,-124.1573,17.18,71,20,8.75,US,1684797336
194,mitu,1.1983,-70.1733,24.18,96,75,0.67,CO,1684797336
195,nar'yan-mar,67.6713,53.087,8.86,76,37,3.79,RU,1684797341
196,jimenez,28.3333,-105.4,33.41,13,62,3.54,MX,1684797341
197,reggane,26.7158,0.1714,25.92,10,47,4.08,DZ,1684797342
198,tofol,5.3248,163.0078,29.88,74,75,5.14,FM,1684797342
199,semenov,56.7875,44.493,16.57,65,100,2.75,RU,1684797342
200,chonchi,-42.6128,-73.8092,10.07,86,100,4.76,CL,1684797342
201,nurota,40.5614,65.6886,23.15,24,100,3.43,UZ,1684797342
202,dalbandin,28.8947,64.4101,29.17,26,92,2.86,PK,1684797342
203,rouissat,31.9243,5.3502,26.04,11,0,2.06,DZ,1684797342
204,portland,45.5234,-122.6762,19.23,54,75,2.06,US,1684797008
205,leh,34.1667,77.5833,6.6,46,7,1.48,IN,1684796940
206,ardabil,38.2498,48.2933,15.75,59,0,4.12,IR,1684797343
207,crane,31.3974,-102.3501,29.22,34,17,7.32,US,1684797343
208,paceco,37.9787,12.5566,17.54,88,0,1.54,IT,1684797343
209,la passe,45.5549,-0.8967,18.13,93,97,4.15,FR,1684797343
210,kerikeri,-35.2268,173.9474,16.62,93,52,1.79,NZ,1684797343
211,boende,-0.2167,20.8667,22.15,98,28,0.84,CD,1684797343
212,kardonikskaya,43.8617,41.7194,9.19,87,21,2.91,RU,1684797343
213,glenfield park,-35.1372,147.334,6.44,71,0,0.39,AU,1684797343
214,santa cruz balanya,14.6872,-90.915,20.25,78,100,1.03,GT,1684797343
215,rizokarpaso,35.6,34.375,19.98,85,6,3.49,CY,1684797343
216,zaragoza,41.6561,-0.8773,17.7,82,75,2.57,ES,1684797312
217,isangel,-19.55,169.2667,23.06,83,100,4.63,VU,1684797344
218,soure,-0.7167,-48.5233,26.76,86,25,4.42,BR,1684797344
219,aleksandrovsk-sakhalinskiy,50.8975,142.1561,6.51,72,67,3.48,RU,1684797344
220,rawson,-43.3002,-65.1023,10.95,70,46,5.52,AR,1684797344
221,kuanda,56.3161,116.0806,11.04,63,67,1.78,RU,1684797344
222,shihezi,44.3,86.0333,15.28,53,96,2.9,CN,1684797344
223,saint-francois,46.4154,3.9054,13.69,94,22,0.51,FR,1684797344
224,remire-montjoly,4.9167,-52.2667,24.02,100,0,0.0,GF,1684797344
225,sisimiut,66.9395,-53.6735,-1.47,75,19,8.48,GL,1684797344
226,malaya vishera,58.8454,32.2222,10.18,77,92,2.83,RU,1684797344
227,badger,64.8,-147.5333,14.17,61,75,2.06,US,1684797345
228,krasnovishersk,60.4078,57.082,13.33,71,95,0.95,RU,1684797345
229,portel,-1.9356,-50.8211,25.05,94,25,1.64,BR,1684797345
230,ziro,27.6333,93.8333,9.31,93,11,1.16,IN,1684797345
231,kingston,17.997,-76.7936,29.0,82,40,1.54,JM,1684797345
232,belfast,54.5833,-5.9333,10.21,81,100,2.57,GB,1684797172
233,cerritos,33.8583,-118.0648,28.82,72,75,4.63,US,1684797157
234,los altos,37.3852,-122.1141,31.45,52,0,7.2,US,1684797110
235,labytnangi,66.6572,66.4183,9.77,78,17,3.32,RU,1684797345
236,arteche,12.2645,125.4048,26.7,85,24,1.01,PH,1684797345
237,mitsamiouli,-11.3847,43.2844,26.43,76,16,3.5,KM,1684797345
238,maputo,-25.9653,32.5892,17.9,80,84,3.13,MZ,1684797346
239,port macquarie,-31.4333,152.9167,12.72,51,0,1.16,AU,1684797346
240,arkhangel'sk,64.5401,40.5433,12.61,52,77,1.98,RU,1684797344
241,pointe aux piments,-20.0628,57.5131,23.31,79,0,1.58,MU,1684797346
242,chino,34.0122,-117.6889,33.52,60,20,7.2,US,1684797346
243,oneida,43.2001,-75.4663,20.44,50,23,1.6,US,1684797346
244,le port,-20.9373,55.2919,23.0,88,1,1.73,RE,1684797346
245,kolonia town,6.964,158.206,33.0,66,100,1.54,FM,1684797346
246,howrah,22.5892,88.3103,29.0,89,40,4.63,IN,1684797346
247,acapulco de juarez,16.8634,-99.8901,31.9,70,75,4.63,MX,1684796899
248,tilcara,-23.5776,-65.3509,9.21,25,0,1.08,AR,1684797346
249,saint-joseph,-21.3667,55.6167,22.21,72,8,1.56,RE,1684797347
250,ormara,25.2088,64.6357,28.26,90,97,2.33,PK,1684797347
251,jinxiang,27.4327,120.6062,18.3,86,100,1.81,CN,1684797347
252,yuzhno-kurilsk,44.0306,145.8556,5.75,77,83,6.74,RU,1684797347
253,borzya,50.3833,116.5167,15.55,29,40,2.35,RU,1684797347
254,buala,-8.145,159.5921,28.75,74,65,2.22,SB,1684797347
255,gebeit,21.0667,36.3167,25.37,18,0,1.74,SD,1684797347
256,zahedan,29.4963,60.8629,22.95,38,0,2.06,IR,1684797347
257,whiteville,34.3388,-78.7031,27.07,51,0,2.06,US,1684797347
258,nkhotakota,-12.9274,34.2961,22.08,73,71,1.25,MW,1684797347
259,gaspe,48.8334,-64.4819,7.12,53,20,2.57,CA,1684797202
260,luwuk,-0.9516,122.7875,25.95,84,69,2.34,ID,1684797348
261,tura,25.5198,90.2201,21.38,88,56,1.66,IN,1684797108
262,tidjikja,18.5564,-11.4271,31.87,17,47,5.65,MR,1684797348
263,gua musang,4.8823,101.9644,22.94,98,100,0.68,MY,1684797348
264,quang ngai,15.1167,108.8,26.36,75,14,2.27,VN,1684797348
265,nantucket,41.2835,-70.0995,13.08,82,0,6.17,US,1684797329
266,hithadhoo,-0.6,73.0833,28.32,70,0,0.34,MV,1684797348
267,gizo,-8.103,156.8419,28.51,73,100,1.89,SB,1684797348
268,bikenibeu village,1.3673,173.1241,29.98,79,75,2.57,KI,1684797348
269,axim,4.8699,-2.2405,26.36,86,99,2.93,GH,1684797349
270,ghat,24.9647,10.1728,27.64,5,38,1.4,LY,1684797349
271,pauini,-7.7136,-66.9764,25.28,92,96,0.6,BR,1684797349
272,castanos,26.7833,-101.4167,31.82,29,0,3.88,MX,1684797349
273,muborak,39.2553,65.1528,27.6,21,100,4.37,UZ,1684797349
274,garissa,-0.4536,39.6401,24.87,84,26,7.36,KE,1684797349
275,filadelfia,39.9523,-75.1638,24.53,54,75,5.14,US,1684797220
276,kristiansund,63.1115,7.732,8.36,87,100,2.57,NO,1684797349
277,black point,-34.6187,137.8972,12.83,72,79,3.8,AU,1684797349
278,bishkek,42.87,74.59,15.11,66,99,2.15,KG,1684797051
279,sorab,14.3833,75.1,22.8,94,22,2.52,IN,1684797350
280,la ronge,55.1001,-105.2842,21.14,37,75,2.57,CA,1684797350
281,ulmeni,47.4667,23.3,14.09,78,9,2.02,RO,1684797350
282,kapuskasing,49.4169,-82.4331,21.05,18,40,3.6,CA,1684797151
283,kyzyl-mazhalyk,51.1333,90.6,8.3,78,100,1.53,RU,1684797350
284,cabo san lucas,22.8909,-109.9124,36.45,19,0,4.12,MX,1684797141
285,petersburg,37.2279,-77.4019,24.32,52,0,3.09,US,1684797241
286,paphos,34.7667,32.4167,17.88,82,0,1.54,CY,1684797350
287,mozarlandia,-14.7447,-50.5706,23.84,44,10,1.82,BR,1684797350
288,yaren,-0.5472,166.916,27.61,78,59,1.06,NR,1684797351
289,elva,58.2225,26.4211,12.34,78,75,1.54,EE,1684797351
290,saipan,15.1355,145.701,25.39,80,100,8.75,MP,1684797351
291,kuqa,41.7278,82.9364,18.87,22,100,2.85,CN,1684797351
292,semnan,35.5729,53.3971,23.58,33,94,2.22,IR,1684797351
293,anadyr,64.75,177.4833,1.28,100,100,2.0,RU,1684797351
294,newman,37.3138,-121.0208,36.19,22,0,1.79,US,1684797351
295,chorozinho,-4.3003,-38.4978,25.15,89,95,1.21,BR,1684797351
296,karratha,-20.7377,116.8463,17.17,34,100,6.22,AU,1684797181
297,pallasovka,50.05,46.8833,18.75,61,100,8.72,RU,1684797351
298,biltine,14.5333,20.9167,31.83,30,7,1.95,TD,1684797351
299,sevsk,52.1491,34.4926,13.09,90,100,2.83,RU,1684797351
300,holualoa,19.6228,-155.9522,26.97,74,75,4.12,US,1684797352
301,pimenta bueno,-11.6725,-61.1936,25.96,79,91,1.33,BR,1684797352
302,naze,28.3667,129.4833,19.51,76,76,7.92,JP,1684797352
303,mvurwi,-17.0333,30.85,17.73,50,92,0.89,ZW,1684797352
304,perry,37.2506,-83.1999,25.1,56,100,2.0,US,1684797352
305,hadibu,12.65,54.0333,29.08,71,96,1.16,YE,1684797352
306,nuuk,64.1835,-51.7216,1.34,75,75,4.63,GL,1684797352
307,sabancuy,18.9667,-91.1833,28.75,70,59,4.89,MX,1684797352
308,spring creek,40.7266,-115.5859,25.83,24,35,5.15,US,1684797352
309,kegen,43.0197,79.2203,7.12,88,100,2.36,KZ,1684797352
310,kongsvinger,60.1905,11.9977,14.37,96,92,1.68,NO,1684797353
311,jiangkou,25.4872,119.1986,19.28,89,100,5.67,CN,1684797353
312,burang,30.25,81.1667,0.5,83,6,0.82,CN,1684797353
313,touros,-5.1989,-35.4608,26.19,82,52,5.89,BR,1684797353
314,derbent,42.0678,48.2899,18.21,72,14,1.81,RU,1684797353
315,forster,-32.1667,152.5167,14.65,79,3,1.21,AU,1684797353
316,polyarnyy,69.1989,33.4478,11.54,74,76,3.26,RU,1684797353
317,malanje,-9.5402,16.341,20.1,78,94,1.43,AO,1684797353
318,holly springs,35.6513,-78.8336,25.04,51,100,1.34,US,1684797353
319,petawawa,45.9001,-77.3328,17.1,29,3,1.34,CA,1684797257
320,kodinsk,58.6881,99.1844,7.29,72,99,1.77,RU,1684797353
321,tamanrasset,22.785,5.5228,20.95,11,0,1.54,DZ,1684797354
322,vilyuysk,63.7553,121.6247,4.48,39,100,2.21,RU,1684797354
323,tralee,52.2704,-9.7026,8.78,89,98,2.18,IE,1684797354
324,labrador city,52.9463,-66.9114,3.95,35,40,5.14,CA,1684797354
325,east london,-33.0153,27.9116,14.75,69,100,4.52,ZA,1684797354
326,sittwe,20.15,92.9,27.58,84,4,2.01,MM,1684797354
327,borogontsy,62.6683,131.1683,3.82,54,15,1.91,RU,1684797354
328,barkhan,29.8977,69.5256,26.98,35,90,1.1,PK,1684797355
329,vila franca do campo,37.7167,-25.4333,17.23,90,60,2.34,PT,1684797355
330,plouzane,48.3833,-4.6167,13.03,91,0,4.12,FR,1684797204
331,yantzaza,-3.8278,-78.7594,22.98,94,74,0.98,EC,1684797355
332,namsos,64.4662,11.4957,9.95,81,100,3.6,NO,1684797355
333,happy valley-goose bay,53.3168,-60.3315,7.17,42,75,4.63,CA,1684797355
334,yangambi,0.8102,24.4336,21.84,95,85,0.8,CD,1684797355
335,iron river,46.0927,-88.6423,24.42,71,72,2.84,US,1684797355
336,masterton,-40.9597,175.6575,16.05,74,0,0.66,NZ,1684797355
337,vadso,70.0744,29.7487,7.49,87,20,3.09,NO,1684797355
338,yeppoon,-23.1333,150.7333,18.88,75,74,5.39,AU,1684797355
339,afaahiti,-17.75,-149.2833,29.93,78,3,7.23,PF,1684797356
340,ciudad acuna,29.3232,-100.9522,28.56,59,0,4.63,MX,1684797356
341,murzuq,25.9155,13.9184,26.02,14,3,4.47,LY,1684797356
342,mongoumba,3.6415,18.5936,22.92,81,86,1.32,CF,1684797356
343,leirvik,59.7798,5.5005,9.79,92,100,7.62,NO,1684797356
344,imbituba,-28.24,-48.6703,19.84,84,61,2.34,BR,1684797356
345,rikaze,29.25,88.8833,6.89,18,54,1.54,CN,1684797356
346,walvis bay,-22.9575,14.5053,12.83,80,3,2.02,NA,1684797356
347,huayucachi,-12.1333,-75.2333,13.11,65,46,2.36,PE,1684797356
348,ketchikan,55.3422,-131.6461,17.26,34,0,5.14,US,1684797356
349,saraykent,39.6936,35.5111,10.43,83,92,1.53,TR,1684797357
350,volosovo,59.4333,29.4833,7.7,94,27,2.14,RU,1684797357
351,pechora,65.1472,57.2244,10.32,73,0,1.35,RU,1684797357
352,dawson creek,55.7666,-120.2362,11.8,94,100,6.69,CA,1684797357
353,mujiayingzi,42.1167,118.7833,16.42,30,0,3.38,CN,1684797357
354,griffith,41.5284,-87.4237,25.71,39,0,5.14,US,1684797357
355,mabaruma,8.2,-59.7833,22.93,98,100,2.1,GY,1684797357
356,mamuju,-2.6748,118.8885,25.79,83,96,1.36,ID,1684797357
357,fort mcmurray,56.7268,-111.381,20.77,45,75,6.69,CA,1684797310
358,laguna,38.421,-121.4238,35.05,26,0,3.09,US,1684797357
359,severo-yeniseyskiy,60.3725,93.0408,3.39,86,64,2.29,RU,1684797358
360,pacific grove,36.6177,-121.9166,20.77,78,75,6.69,US,1684797271
361,lihue,21.9789,-159.3672,27.77,70,40,6.69,US,1684797358
362,chandler,33.3062,-111.8412,38.91,12,0,4.12,US,1684797232
363,queenstown,-31.8976,26.8753,4.41,74,93,0.31,ZA,1684797358
364,igarka,67.4667,86.5833,2.44,97,100,8.18,RU,1684797358
365,dunedin,-45.8742,170.5036,11.94,68,100,2.3,NZ,1684797358
366,nakhodka,42.8333,132.8947,12.57,71,0,1.34,RU,1684797358
367,turrialba,9.9047,-83.6835,26.37,90,98,1.63,CR,1684797358
368,mana,5.6592,-53.7767,26.0,90,100,4.81,GF,1684797358
369,maibong,25.3,93.1667,20.12,88,1,0.53,IN,1684797358
370,kangding,30.0513,101.9603,9.43,87,95,3.57,CN,1684797358
371,el porvenir,13.7617,-87.3458,33.63,42,97,2.43,HN,1684797147
372,clarence town,-32.5833,151.7833,13.64,43,6,1.58,AU,1684797359
373,cacequi,-29.8836,-54.825,20.32,80,72,1.5,BR,1684797359
374,ishigaki,24.3448,124.1572,22.07,94,75,5.14,JP,1684797359
375,vilyuchinsk,52.9306,158.4028,2.15,95,100,6.15,RU,1684797359
376,jinchang,38.4953,102.1739,16.34,37,100,4.02,CN,1684797359
377,klaksvik,62.2266,-6.589,8.51,82,100,10.36,FO,1684797359
378,am timan,11.0297,20.2827,33.14,29,2,1.83,TD,1684797359
379,mili,6.0815,171.735,28.6,80,82,7.1,MH,1684797359
380,vila do maio,15.1333,-23.2167,23.44,80,100,7.42,CV,1684797360
381,ancud,-41.8697,-73.8203,9.83,83,100,8.18,CL,1684797360
382,kosh-agach,50.0,88.6667,2.29,75,52,1.84,RU,1684797360
383,pervomaysk,48.0443,30.8507,13.11,94,86,3.52,UA,1684797360
384,boumerdas,36.7664,3.4772,19.08,86,36,2.3,DZ,1684797360
385,xindian,36.7975,118.2944,21.5,25,1,3.28,CN,1684797360
386,mutare,-18.9707,32.6709,13.99,73,3,2.22,ZW,1684797360
387,sao raimundo das mangabeiras,-7.0219,-45.4811,27.7,53,46,0.5,BR,1684797360
388,rongelap,11.1635,166.8941,27.88,79,84,6.32,MH,1684797360
389,essaouira,31.5125,-9.77,17.72,78,20,2.06,MA,1684797360
390,gamba,-2.65,10.0,24.07,89,86,1.78,GA,1684797361
391,talcahuano,-36.7167,-73.1167,13.82,94,100,4.63,CL,1684797361
392,washington,47.5001,-120.5015,20.22,35,73,5.16,US,1684797361
393,ylitornio,66.3089,23.6773,11.14,61,84,0.64,FI,1684797361
394,xiaoweizhai,26.1903,107.5125,13.0,92,100,1.61,CN,1684797361
395,adamovka,51.5223,59.9396,14.33,44,5,4.12,RU,1684797361
396,salalah,17.0151,54.0924,29.05,79,20,4.12,OM,1684797361
397,beyneu,45.3167,55.2,18.64,66,64,5.9,KZ,1684797361
398,belaya kholunitsa,58.84,50.8528,12.04,92,95,1.01,RU,1684797362
399,aasiaat,68.7098,-52.8699,-2.13,82,33,5.33,GL,1684797362
400,road town,18.4167,-64.6167,28.05,74,40,3.09,VG,1684797223
401,hun,29.1268,15.9477,22.79,23,0,2.99,LY,1684797363
402,san patricio,28.017,-97.5169,31.76,56,80,3.46,US,1684797363
403,caleta de carquin,-11.0925,-77.6267,21.83,79,54,5.11,PE,1684797368
404,sinop,41.7711,34.8709,11.33,97,84,0.97,TR,1684797368
405,tsevie,6.4261,1.2133,25.35,87,94,1.5,TG,1684797369
406,guaxupe,-21.3053,-46.7128,15.43,77,99,2.12,BR,1684797183
407,daltonganj,24.0333,84.0667,28.39,22,1,1.41,IN,1684797369
408,puerto baquerizo moreno,-0.9,-89.6,26.55,78,40,3.09,EC,1684797369
409,kayyerkan,69.3786,87.7439,0.72,100,100,8.86,RU,1684797370
410,grande prairie,55.1667,-118.8027,11.96,98,100,1.39,CA,1684797266
411,north vancouver,49.3164,-123.0693,17.4,69,20,5.66,CA,1684797202
412,constantia,44.1833,28.65,15.39,88,16,5.2,RO,1684797370
413,zinjibar,13.1287,45.3807,29.6,77,18,5.3,YE,1684797376
414,kukawa,12.9234,13.5606,31.18,43,40,2.15,NG,1684797377
415,strathmore,51.0501,-113.3852,14.07,77,98,6.69,CA,1684797202
416,hemsby,52.6971,1.6918,10.55,91,2,7.78,GB,1684797378
417,west end,26.6833,-78.9667,27.99,72,13,5.66,BS,1684797378
418,horta,38.5333,-28.6333,17.23,77,13,4.47,PT,1684797378
419,lincoln city,44.9582,-124.0179,16.5,68,94,4.02,US,1684797087
420,cowra,-33.8333,148.6833,8.61,68,16,0.48,AU,1684797378
421,celestun,20.8667,-90.4,28.33,65,12,7.13,MX,1684797379
422,tual,-5.6667,132.75,27.13,82,100,9.39,ID,1684797379
423,santa elena de uairen,4.6167,-61.1333,21.01,93,98,1.53,VE,1684797379
424,kulhudhuffushi,6.6221,73.07,28.4,75,100,1.28,MV,1684797379
425,sirte,31.2089,16.5887,19.17,79,0,2.74,LY,1684797380
426,ciudad lazaro cardenas,17.9583,-102.2,30.17,64,16,5.41,MX,1684797380
427,gao,16.6362,1.637,33.75,22,96,2.32,ML,1684797380
428,suonenjoki,62.6167,27.1333,12.32,88,100,2.4,FI,1684797380
429,el fasher,13.6279,25.3494,29.52,9,0,4.42,SD,1684797380
430,ban dung,17.699,103.2596,27.22,99,45,2.0,TH,1684797381
431,mirriah,13.7073,9.1501,33.05,27,93,3.08,NE,1684797381
432,pervomayskoye,43.919,46.7102,16.3,82,40,1.65,RU,1684797381
433,phan thiet,10.9333,108.1,26.38,83,98,3.21,VN,1684797097
434,zdolbuniv,50.5206,26.2425,10.84,72,91,2.07,UA,1684797381
435,yemetsk,63.4721,41.7941,14.17,55,100,1.5,RU,1684797381
436,taitung city,22.7583,121.1444,24.15,94,100,0.51,TW,1684797382
437,livingstonia,-10.606,34.1063,17.59,86,72,1.14,MW,1684797383
438,puerto deseado,-47.7503,-65.8938,6.27,63,1,6.14,AR,1684797383
439,vanimo,-2.6741,141.3028,27.77,75,98,1.62,PG,1684797383
440,topchanchi,23.9,86.2,27.74,76,0,2.73,IN,1684797384
441,fukuecho,32.6881,128.8419,18.2,77,75,7.2,JP,1684797384
442,zheleznogorsk,52.331,35.3711,12.11,92,100,2.79,RU,1684797384
443,serowe,-22.3833,26.7167,14.36,58,33,2.79,BW,1684797385
444,laurel,39.0993,-76.8483,25.4,45,0,2.57,US,1684797263
445,ornskoldsvik,63.2909,18.7153,6.53,93,100,2.06,SE,1684797385
446,port alfred,-33.5906,26.891,14.86,68,100,6.6,ZA,1684797385
447,sao gabriel da cachoeira,-0.1303,-67.0892,24.67,95,96,0.61,BR,1684797150
448,myskhako,44.6714,37.7433,14.9,92,29,1.79,RU,1684797386
449,viedma,-40.8135,-62.9967,12.01,45,43,3.19,AR,1684797386
450,kabalo,-6.05,26.9167,22.46,64,37,1.09,CD,1684797386
451,krutaya gorka,55.3649,73.2231,13.82,56,23,3.27,RU,1684797387
452,san juan,-31.5375,-68.5364,17.11,56,44,4.32,AR,1684797256
453,eyl,7.9803,49.8164,27.78,80,18,3.18,SO,1684797387
454,salinopolis,-0.6136,-47.3561,26.75,85,70,4.65,BR,1684797387
455,baiyin,36.5583,104.2081,14.49,30,100,1.8,CN,1684797387
456,lospalos,-8.5186,127.0025,21.81,87,93,2.59,TL,1684797388
457,kailua-kona,19.6406,-155.9956,29.04,74,75,4.12,US,1684797388
458,leava,-14.3,-178.1667,28.26,77,47,5.36,WF,1684797388
459,daru,-9.0763,143.2092,25.85,80,100,7.87,PG,1684797389
460,esens,53.6487,7.6127,13.34,95,99,6.27,DE,1684797389
461,freeport,40.6576,-73.5832,19.75,68,0,5.66,US,1684797093
462,quezon,7.7303,125.0989,24.44,92,43,0.49,PH,1684797389
463,luoyang,34.6836,112.4536,17.32,49,19,1.42,CN,1684797389
464,gaiman,-43.2897,-65.4929,10.16,63,64,4.71,AR,1684797389
465,la sarre,48.8002,-79.1996,14.79,46,89,1.69,CA,1684797390
466,batang,-6.4846,110.7083,24.57,78,51,2.56,ID,1684797390
467,at taj,24.2049,23.2857,26.3,19,11,4.2,LY,1684797390
468,patacamaya,-17.2333,-67.9167,8.48,22,85,1.51,BO,1684797390
469,warrenton,-28.114,24.8475,11.1,38,50,3.95,ZA,1684797391
470,grand falls-windsor,48.9332,-55.6649,8.06,59,100,1.34,CA,1684797392
471,scarborough,54.2797,-0.4044,9.39,85,65,4.47,GB,1684797216
472,yongfeng,27.4283,112.1834,15.34,86,50,0.93,CN,1684797392
473,malabar,-33.9667,151.25,14.27,60,0,4.12,AU,1684797392
474,nouadhibou,20.931,-17.0347,18.99,82,0,7.72,MR,1684797392
475,mount isa,-20.7333,139.5,18.87,30,4,0.51,AU,1684797393
476,kununurra,-15.7667,128.7333,18.99,42,0,4.12,AU,1684797394
477,xai-xai,-25.0519,33.6442,18.66,82,45,3.18,MZ,1684797394
478,anna regina,7.2644,-58.5077,25.51,90,99,3.66,GY,1684797395
479,kiunga,-6.1219,141.2906,24.11,91,100,1.58,PG,1684797395
480,inhambane,-23.865,35.3833,20.13,76,42,4.58,MZ,1684797395
481,cabedelo,-6.9811,-34.8339,26.37,86,12,5.24,BR,1684797395
482,andergrove,-21.0833,149.1833,19.8,73,99,7.35,AU,1684797162
483,ke-macina,13.9623,-5.3572,35.39,17,63,3.81,ML,1684797396
484,gargalianoi,37.0667,21.6333,15.75,83,86,2.83,GR,1684797396
485,belle fourche,44.6714,-103.8522,28.51,35,8,6.89,US,1684797396
486,ar rass,25.8694,43.4973,29.5,13,77,3.23,SA,1684797397
487,bereket,39.2446,55.5154,28.74,32,27,1.75,TM,1684797397
488,ceeldheer,3.8488,47.1806,26.59,86,17,4.57,SO,1684797397
489,gaillimh,53.2719,-9.0489,8.35,85,100,2.85,IE,1684797398
490,garoowe,8.4054,48.4845,25.98,75,47,3.72,SO,1684797398
491,howard springs,-12.497,131.047,22.95,66,0,3.96,AU,1684797398
492,peace river,56.2501,-117.286,12.17,100,100,9.26,CA,1684797398
493,sabha,27.0377,14.4283,25.07,15,23,5.38,LY,1684797398
494,fale old settlement,-9.3852,-171.2468,28.49,75,73,5.71,TK,1684797399
495,oranjemund,-28.55,16.4333,12.12,88,90,1.6,NA,1684797399
496,ulladulla,-35.35,150.4667,12.48,57,0,1.88,AU,1684797399
497,akjoujt,19.6969,-14.4164,28.39,20,70,4.8,MR,1684797399
498,constitucion,-35.3333,-72.4167,13.27,96,100,4.61,CL,1684797357
499,luninyets,52.2472,26.8047,13.91,60,100,1.89,BY,1684797399
500,lulea,65.5842,22.1547,7.04,87,96,1.03,SE,1684797399
501,callao,-12.0667,-77.15,23.73,73,100,5.66,PE,1684797396
502,velten,52.6833,13.1833,19.44,57,100,2.98,DE,1684797399
503,tanabe,33.7333,135.3667,19.56,82,75,2.57,JP,1684797400
504,undurkhaan,47.3194,110.6556,14.5,25,99,5.0,MN,1684797400
505,sao francisco de assis,-29.5503,-55.1311,19.72,84,57,2.46,BR,1684797400
506,kayangel,8.0823,134.7173,28.5,75,34,4.03,PW,1684797400
507,mejit,10.2753,170.8646,27.83,80,94,7.96,MH,1684797400
508,belokurikha,51.9959,84.9896,8.98,79,26,1.83,RU,1684797400
509,al majaridah,19.1236,41.9111,30.71,54,50,0.66,SA,1684797166
510,lhuentse,27.6679,91.1839,15.43,90,92,1.52,BT,1684797400
511,mazamari,-11.3258,-74.5308,23.19,95,82,0.21,PE,1684797400
512,pionerskiy,54.9508,20.2275,10.97,78,9,3.46,RU,1684797400
513,murun-kuren,49.6342,100.1625,4.67,97,100,1.11,MN,1684797401
514,akrehamn,59.2667,5.1833,8.89,87,100,6.17,NO,1684797401
515,camana,-16.6228,-72.7111,19.37,83,99,3.23,PE,1684797401
516,bamboo flat,11.7,92.7167,27.05,89,40,1.03,IN,1684797401
517,huanggang,23.677,116.9996,24.94,90,100,4.2,CN,1684797401
518,flat river,37.8501,-90.5168,26.36,34,0,4.12,US,1684797401
519,boone,39.0334,-92.3335,26.47,40,43,1.39,US,1684797401
520,estacion santa engracia,24.0159,-99.2015,31.06,49,62,2.4,MX,1684797401
521,muromtsevo,56.3724,75.2418,9.63,70,6,2.54,RU,1684797401
522,ajaccio,42.0,8.9167,13.03,94,0,2.57,FR,1684797312
523,turpan,42.9333,89.1667,20.98,45,8,0.94,CN,1684797402
524,bayanhongor,46.7167,100.1167,4.99,66,83,0.53,MN,1684797402
525,mostaganem,35.9311,0.0892,17.48,84,75,6.86,DZ,1684797317
526,muna,20.4833,-89.7167,31.94,43,67,4.71,MX,1684797402
527,zierbena,43.35,-3.0833,17.34,91,100,2.06,ES,1684797402
528,villa gesell,-37.2639,-56.973,15.03,91,87,3.19,AR,1684796897
529,carnot,4.9409,15.8665,21.05,95,80,0.75,CF,1684797402
530,labasa,-16.4167,179.3833,27.84,79,80,2.35,FJ,1684797402
531,pacocha,-17.5833,-71.3333,18.14,84,33,1.78,PE,1684797402
532,egersund,58.4513,5.9997,10.05,95,100,6.45,NO,1684797402
533,zhengjiatun,43.5064,123.5064,18.79,33,1,2.29,CN,1684797403
534,sambava,-14.2667,50.1667,22.43,93,91,1.83,MG,1684797403
535,trinidad,-14.8333,-64.9,24.99,94,75,0.0,BO,1684797403
536,aroma,15.8167,36.1333,30.05,42,0,3.31,SD,1684797403
537,kiruna,67.8557,20.2251,10.51,54,34,3.09,SE,1684797403
538,jumla,29.2747,82.1838,10.69,73,6,1.34,NP,1684797305
539,sanlucar la mayor,37.3871,-6.2011,15.31,87,100,0.45,ES,1684797403
540,khuzdar,27.7384,66.6434,26.32,47,89,1.97,PK,1684797403
541,ebon,4.582,168.6964,27.76,80,100,4.8,MH,1684797403
542,porto seguro,-16.4497,-39.0647,22.29,94,40,1.03,BR,1684797403
543,vanino,49.0869,140.2543,9.58,64,6,1.49,RU,1684797403
544,soledade,-28.8183,-52.5103,14.43,84,12,1.69,BR,1684797404
545,teknaf,20.8624,92.3058,26.11,90,3,1.02,BD,1684797404
546,port blair,11.6667,92.75,27.02,89,40,1.03,IN,1684797404
547,malkapur,20.8833,76.2,30.39,33,0,5.13,IN,1684797404
548,puntarenas,9.9763,-84.8384,27.82,79,100,4.4,CR,1684797404
549,la junta,37.985,-103.5438,25.03,41,0,4.63,US,1684797404
550,silver city,32.7701,-108.2803,27.98,17,40,3.6,US,1684797207
551,guelmim,28.987,-10.0574,14.87,82,2,7.36,MA,1684797404
552,irymple,-34.25,142.1667,10.98,66,4,1.05,AU,1684797404
553,kurumkan,54.3,110.3,13.0,51,98,1.48,RU,1684797404
554,shimanovsk,52.0,127.7,18.04,31,86,3.13,RU,1684797405
555,akureyri,65.6835,-18.0878,4.96,81,20,2.06,IS,1684797405
556,carutapera,-1.195,-46.02,25.93,89,49,3.4,BR,1684797405
557,tomohon,1.3346,124.8392,22.52,89,60,1.02,ID,1684797405
558,scottburgh,-30.2867,30.7532,14.58,73,70,2.13,ZA,1684797405
559,narasannapeta,18.4167,84.05,27.43,86,57,5.11,IN,1684797405
560,mirnyy,62.5353,113.9611,4.02,44,100,0.89,RU,1684797405
561,oxapampa,-10.5775,-75.4017,17.1,98,93,0.52,PE,1684797405
562,kismayo,-0.3582,42.5454,26.86,85,35,6.24,SO,1684797405
563,lago da pedra,-4.3333,-45.1667,25.24,82,80,0.5,BR,1684797405
564,zakamensk,50.3741,103.2863,9.38,68,100,1.5,RU,1684797406
565,huarmey,-10.0681,-78.1522,22.84,77,33,4.46,PE,1684797406
566,san ignacio de velasco,-16.3667,-60.95,25.52,71,99,1.19,BO,1684797406
567,emerald,-23.5333,148.1667,17.41,43,0,4.53,AU,1684797406
568,sanming,26.2486,117.6186,18.47,95,100,1.06,CN,1684797406
569,kampong cham,11.9934,105.4635,25.92,80,100,1.59,KH,1684797406
570,grabouw,-34.1515,19.0151,13.04,54,100,1.24,ZA,1684797406
571,abu jibeha,11.4562,31.2285,31.02,13,44,1.43,SD,1684797406
572,carnarvon,-24.8667,113.6333,19.62,37,100,3.09,AU,1684797406
573,ad dabbah,18.05,30.95,32.05,10,0,4.01,SD,1684797406
574,lieto,60.5103,22.4618,13.46,69,0,1.54,FI,1684797406
575,vernon,50.2581,-119.2691,14.13,74,100,4.92,CA,1684797239
576,tosontsengel,48.7567,98.2839,4.99,93,95,1.88,MN,1684797407
577,narvik,68.4384,17.4272,15.77,59,18,4.38,NO,1684797407
578,belmonte,-15.8631,-38.8828,23.18,82,10,3.53,BR,1684797407
579,kuta,-8.7233,115.1723,25.87,79,34,4.23,ID,1684797407
